{
"type": "FeatureCollection",
"crs": { "type": "name", "properties": { "name": "urn:ogc:def:crs:OGC:1.3:CRS84" } },

"features": [
{ "type": "Feature", "properties": { "SID": 1001, "Name": "元秋鹿タクシー前ごみ集積所横", "Label": "元秋鹿タクシー前ごみ集積所横", "Add1": "秋鹿町３３６４", "Y": 35.477833, "X": 132.958083}, "geometry": { "type": "Point", "coordinates": [ 132.958083, 35.477833 ] } },
{ "type": "Feature", "properties": { "SID": 1002, "Name": "井神ごみ集積所横", "Label": "井神ごみ集積所横", "Add1": "秋鹿町", "Y": 35.488500, "X": 132.959667}, "geometry": { "type": "Point", "coordinates": [ 132.959667, 35.488500 ] } },
{ "type": "Feature", "properties": { "SID": 1003, "Name": "旧中島小学校前ごみ集積所横", "Label": "旧中島小学校前ごみ集積所横", "Add1": "秋鹿町", "Y": 35.505528, "X": 132.946639}, "geometry": { "type": "Point", "coordinates": [ 132.946639, 35.505528 ] } },
{ "type": "Feature", "properties": { "SID": 1004, "Name": "芦尾地区ごみ集積所横", "Label": "芦尾地区ごみ集積所横", "Add1": "秋鹿町１６０６−２", "Y": 35.515611, "X": 132.935250}, "geometry": { "type": "Point", "coordinates": [ 132.935250, 35.515611 ] } },
{ "type": "Feature", "properties": { "SID": 1005, "Name": "本谷東側ごみ集積所横", "Label": "本谷東側ごみ集積所横", "Add1": "秋鹿町", "Y": 35.488194, "X": 132.953833}, "geometry": { "type": "Point", "coordinates": [ 132.953833, 35.488194 ] } },
{ "type": "Feature", "properties": { "SID": 1006, "Name": "中組地区ごみ集積所横", "Label": "中組地区ごみ集積所横", "Add1": "秋鹿町", "Y": 35.496889, "X": 132.950278}, "geometry": { "type": "Point", "coordinates": [ 132.950278, 35.496889 ] } },
{ "type": "Feature", "properties": { "SID": 1007, "Name": "山中リサイクルステーション", "Label": "山中リサイクルステーション", "Add1": "秋鹿町１９９８", "Y": 35.507722, "X": 132.941611}, "geometry": { "type": "Point", "coordinates": [ 132.941611, 35.507722 ] } },
{ "type": "Feature", "properties": { "SID": 1008, "Name": "六坊リサイクルステーション", "Label": "六坊リサイクルステーション", "Add1": "秋鹿町", "Y": 35.513056, "X": 132.941083}, "geometry": { "type": "Point", "coordinates": [ 132.941083, 35.513056 ] } },
{ "type": "Feature", "properties": { "SID": 1009, "Name": "大垣中谷入口ごみ集積所横", "Label": "大垣中谷入口ごみ集積所横", "Add1": "大垣町１０８７", "Y": 35.472694, "X": 132.933639}, "geometry": { "type": "Point", "coordinates": [ 132.933639, 35.472694 ] } },
{ "type": "Feature", "properties": { "SID": 1010, "Name": "円木池下ごみ集積所横", "Label": "円木池下ごみ集積所横", "Add1": "大垣町２１７", "Y": 35.479694, "X": 132.942167}, "geometry": { "type": "Point", "coordinates": [ 132.942167, 35.479694 ] } },
{ "type": "Feature", "properties": { "SID": 1011, "Name": "上寄公民館", "Label": "上寄公民館", "Add1": "大垣町１６８５−３", "Y": 35.481028, "X": 132.927194}, "geometry": { "type": "Point", "coordinates": [ 132.927194, 35.481028 ] } },
{ "type": "Feature", "properties": { "SID": 1012, "Name": "秋鹿公民館", "Label": "秋鹿公民館", "Add1": "岡本町７０", "Y": 35.476111, "X": 132.949389}, "geometry": { "type": "Point", "coordinates": [ 132.949389, 35.476111 ] } },
{ "type": "Feature", "properties": { "SID": 1013, "Name": "岡本町上岡地区", "Label": "岡本町上岡地区", "Add1": "岡本町", "Y": 35.489306, "X": 132.945361}, "geometry": { "type": "Point", "coordinates": [ 132.945361, 35.489306 ] } },
{ "type": "Feature", "properties": { "SID": 1014, "Name": "下岡会館奥ごみ集積所横", "Label": "下岡会館奥ごみ集積所横", "Add1": "岡本町９７０", "Y": 35.4812447, "X": 132.9480446}, "geometry": { "type": "Point", "coordinates": [ 132.9480446, 35.4812447 ] } },
{ "type": "Feature", "properties": { "SID": 1015, "Name": "朝酌公会堂", "Label": "朝酌公会堂", "Add1": "朝酌町８９−２", "Y": 35.464278, "X": 133.103861}, "geometry": { "type": "Point", "coordinates": [ 133.103861, 35.464278 ] } },
{ "type": "Feature", "properties": { "SID": 1016, "Name": "矢田消防機庫横", "Label": "矢田消防機庫横", "Add1": "朝酌町１３８９", "Y": 35.451250, "X": 133.106306}, "geometry": { "type": "Point", "coordinates": [ 133.106306, 35.451250 ] } },
{ "type": "Feature", "properties": { "SID": 1017, "Name": "大井市営バス停付近ごみ集積所横", "Label": "大井市営バス停付近ごみ集積所横", "Add1": "大井町", "Y": 35.462028, "X": 133.123278}, "geometry": { "type": "Point", "coordinates": [ 133.123278, 35.462028 ] } },
{ "type": "Feature", "properties": { "SID": 1018, "Name": "大海崎市営バス廻し場", "Label": "大海崎市営バス廻し場", "Add1": "大海崎町", "Y": 35.470250, "X": 133.138333}, "geometry": { "type": "Point", "coordinates": [ 133.138333, 35.470250 ] } },
{ "type": "Feature", "properties": { "SID": 1019, "Name": "西尾市営バス廻し場", "Label": "西尾市営バス廻し場", "Add1": "西尾町４７７−１ オリオン工芸社", "Y": 35.469944, "X": 133.088806}, "geometry": { "type": "Point", "coordinates": [ 133.088806, 35.469944 ] } },
{ "type": "Feature", "properties": { "SID": 1020, "Name": "太陽団地入口", "Label": "太陽団地入口", "Add1": "西尾町", "Y": 35.469750, "X": 133.085361}, "geometry": { "type": "Point", "coordinates": [ 133.085361, 35.469750 ] } },
{ "type": "Feature", "properties": { "SID": 1021, "Name": "福富町ごみ集積所横", "Label": "福富町ごみ集積所横", "Add1": "福富町", "Y": 35.452833, "X": 133.116750}, "geometry": { "type": "Point", "coordinates": [ 133.116750, 35.452833 ] } },
{ "type": "Feature", "properties": { "SID": 1022, "Name": "上佐陀会館", "Label": "上佐陀会館", "Add1": "上佐陀町２２０", "Y": 35.503417, "X": 133.014417}, "geometry": { "type": "Point", "coordinates": [ 133.014417, 35.503417 ] } },
{ "type": "Feature", "properties": { "SID": 1023, "Name": "下佐陀町上ごみ集積所横", "Label": "下佐陀町上ごみ集積所横", "Add1": "下佐陀町５０７−３", "Y": 35.497944, "X": 133.018389}, "geometry": { "type": "Point", "coordinates": [ 133.018389, 35.497944 ] } },
{ "type": "Feature", "properties": { "SID": 1024, "Name": "下佐陀中集会所前", "Label": "下佐陀中集会所前", "Add1": "下佐陀町", "Y": 35.495306, "X": 133.021194}, "geometry": { "type": "Point", "coordinates": [ 133.021194, 35.495306 ] } },
{ "type": "Feature", "properties": { "SID": 1025, "Name": "下佐陀下地区", "Label": "下佐陀下地区", "Add1": "下佐陀町", "Y": 35.491889, "X": 133.022778}, "geometry": { "type": "Point", "coordinates": [ 133.022778, 35.491889 ] } },
{ "type": "Feature", "properties": { "SID": 1026, "Name": "淞苑団地ごみ集積所横", "Label": "淞苑団地ごみ集積所横", "Add1": "西生馬町６２７−７", "Y": 35.501583, "X": 133.026139}, "geometry": { "type": "Point", "coordinates": [ 133.026139, 35.501583 ] } },
{ "type": "Feature", "properties": { "SID": 1027, "Name": "西生馬梨廻池付近", "Label": "西生馬梨廻池付近", "Add1": "西生馬町", "Y": 35.501778, "X": 133.027694}, "geometry": { "type": "Point", "coordinates": [ 133.027694, 35.501778 ] } },
{ "type": "Feature", "properties": { "SID": 1028, "Name": "生馬公民館", "Label": "生馬公民館", "Add1": "西生馬町", "Y": 35.494611, "X": 133.026944}, "geometry": { "type": "Point", "coordinates": [ 133.026944, 35.494611 ] } },
{ "type": "Feature", "properties": { "SID": 1029, "Name": "生馬ヶ丘南街区公園", "Label": "生馬ヶ丘南街区公園", "Add1": "東生馬町３８−２５０", "Y": 35.496778, "X": 133.034778}, "geometry": { "type": "Point", "coordinates": [ 133.034778, 35.496778 ] } },
{ "type": "Feature", "properties": { "SID": 1030, "Name": "東生馬公会堂", "Label": "東生馬公会堂", "Add1": "東生馬町１１５−２", "Y": 35.497583, "X": 133.037444}, "geometry": { "type": "Point", "coordinates": [ 133.037444, 35.497583 ] } },
{ "type": "Feature", "properties": { "SID": 1031, "Name": "生馬ヶ丘北街区公園", "Label": "生馬ヶ丘北街区公園", "Add1": "東生馬町３８−１５６", "Y": 35.499056, "X": 133.033167}, "geometry": { "type": "Point", "coordinates": [ 133.033167, 35.499056 ] } },
{ "type": "Feature", "properties": { "SID": 1032, "Name": "東生馬共同住宅入口", "Label": "東生馬共同住宅入口", "Add1": "東生馬町", "Y": 35.495889, "X": 133.032333}, "geometry": { "type": "Point", "coordinates": [ 133.032333, 35.495889 ] } },
{ "type": "Feature", "properties": { "SID": 1033, "Name": "浜佐田公民館", "Label": "浜佐田公民館", "Add1": "浜佐田町６３−１", "Y": 35.481750, "X": 133.029167}, "geometry": { "type": "Point", "coordinates": [ 133.029167, 35.481750 ] } },
{ "type": "Feature", "properties": { "SID": 1034, "Name": "浜佐田灘公民館", "Label": "浜佐田灘公民館", "Add1": "浜佐田町９０７−４", "Y": 35.473222, "X": 133.026306}, "geometry": { "type": "Point", "coordinates": [ 133.026306, 35.473222 ] } },
{ "type": "Feature", "properties": { "SID": 1035, "Name": "椎ノ木ビレッジ６号棟ごみ集積所横", "Label": "椎ノ木ビレッジ６号棟ごみ集積所横", "Add1": "浜佐田町５１２", "Y": 35.474944, "X": 133.034083}, "geometry": { "type": "Point", "coordinates": [ 133.034083, 35.474944 ] } },
{ "type": "Feature", "properties": { "SID": 1036, "Name": "薦津公民館", "Label": "薦津公民館", "Add1": "薦津町９７", "Y": 35.488028, "X": 133.023528}, "geometry": { "type": "Point", "coordinates": [ 133.023528, 35.488028 ] } },
{ "type": "Feature", "properties": { "SID": 1037, "Name": "市営客ノ尾住宅", "Label": "市営客ノ尾住宅", "Add1": "薦津町", "Y": 35.490306, "X": 133.030278}, "geometry": { "type": "Point", "coordinates": [ 133.030278, 35.490306 ] } },
{ "type": "Feature", "properties": { "SID": 1038, "Name": "大野公民館", "Label": "大野公民館", "Add1": "上大野町１８５５−１", "Y": 35.488833, "X": 132.920750}, "geometry": { "type": "Point", "coordinates": [ 132.920750, 35.488833 ] } },
{ "type": "Feature", "properties": { "SID": 1039, "Name": "東村地区ごみ集積所横", "Label": "東村地区ごみ集積所横", "Add1": "上大野町３１４−１", "Y": 35.494000, "X": 132.927917}, "geometry": { "type": "Point", "coordinates": [ 132.927917, 35.494000 ] } },
{ "type": "Feature", "properties": { "SID": 1040, "Name": "中川生活改善センター", "Label": "中川生活改善センター", "Add1": "上大野町", "Y": 35.499056, "X": 132.923972}, "geometry": { "type": "Point", "coordinates": [ 132.923972, 35.499056 ] } },
{ "type": "Feature", "properties": { "SID": 1041, "Name": "西の村公民館横", "Label": "西の村公民館横", "Add1": "上大野町１３５３", "Y": 35.500500, "X": 132.919139}, "geometry": { "type": "Point", "coordinates": [ 132.919139, 35.500500 ] } },
{ "type": "Feature", "properties": { "SID": 1042, "Name": "中之手公民館", "Label": "中之手公民館", "Add1": "上大野町１９８７", "Y": 35.480222, "X": 132.919722}, "geometry": { "type": "Point", "coordinates": [ 132.919722, 35.480222 ] } },
{ "type": "Feature", "properties": { "SID": 1043, "Name": "殿山ごみ集積所付近", "Label": "殿山ごみ集積所付近", "Add1": "大野町", "Y": 35.481139, "X": 132.915028}, "geometry": { "type": "Point", "coordinates": [ 132.915028, 35.481139 ] } },
{ "type": "Feature", "properties": { "SID": 1044, "Name": "津ノ森ごみ集積所横", "Label": "津ノ森ごみ集積所横", "Add1": "大野町１２５−８", "Y": 35.466750, "X": 132.919250}, "geometry": { "type": "Point", "coordinates": [ 132.919250, 35.466750 ] } },
{ "type": "Feature", "properties": { "SID": 1045, "Name": "上根尾不燃物集積所横", "Label": "上根尾不燃物集積所横", "Add1": "大野町", "Y": 35.492611, "X": 132.914472}, "geometry": { "type": "Point", "coordinates": [ 132.914472, 35.492611 ] } },
{ "type": "Feature", "properties": { "SID": 1046, "Name": "細原地区ごみ集積所横", "Label": "細原地区ごみ集積所横", "Add1": "大野町", "Y": 35.502778, "X": 132.907778}, "geometry": { "type": "Point", "coordinates": [ 132.907778, 35.502778 ] } },
{ "type": "Feature", "properties": { "SID": 1047, "Name": "山中地区ごみ集積所横", "Label": "山中地区ごみ集積所横", "Add1": "大野町", "Y": 35.474694, "X": 132.916972}, "geometry": { "type": "Point", "coordinates": [ 132.916972, 35.474694 ] } },
{ "type": "Feature", "properties": { "SID": 1048, "Name": "魚瀬（１）", "Label": "魚瀬（１）", "Add1": "魚瀬町９７８−２", "Y": 35.514194, "X": 132.919167}, "geometry": { "type": "Point", "coordinates": [ 132.919167, 35.514194 ] } },
{ "type": "Feature", "properties": { "SID": 1049, "Name": "魚瀬（２）", "Label": "魚瀬（２）", "Add1": "魚瀬町６５６−２８", "Y": 35.516222, "X": 132.920806}, "geometry": { "type": "Point", "coordinates": [ 132.920806, 35.516222 ] } },
{ "type": "Feature", "properties": { "SID": 1050, "Name": "魚瀬（３）", "Label": "魚瀬（３）", "Add1": "魚瀬町", "Y": 35.516139, "X": 132.919444}, "geometry": { "type": "Point", "coordinates": [ 132.919444, 35.516139 ] } },
{ "type": "Feature", "properties": { "SID": 1051, "Name": "魚瀬（４）", "Label": "魚瀬（４）", "Add1": "魚瀬町９４７", "Y": 35.515333, "X": 132.918417}, "geometry": { "type": "Point", "coordinates": [ 132.918417, 35.515333 ] } },
{ "type": "Feature", "properties": { "SID": 1052, "Name": "魚瀬（５）", "Label": "魚瀬（５）", "Add1": "魚瀬町", "Y": 35.514167, "X": 132.916833}, "geometry": { "type": "Point", "coordinates": [ 132.916833, 35.514167 ] } },
{ "type": "Feature", "properties": { "SID": 1053, "Name": "魚瀬（６）", "Label": "魚瀬（６）", "Add1": "魚瀬町１１９２", "Y": 35.516167, "X": 132.917556}, "geometry": { "type": "Point", "coordinates": [ 132.917556, 35.516167 ] } },
{ "type": "Feature", "properties": { "SID": 1054, "Name": "鎌田自治集会所", "Label": "鎌田自治集会所", "Add1": "魚瀬町１６８", "Y": 35.511472, "X": 132.925472}, "geometry": { "type": "Point", "coordinates": [ 132.925472, 35.511472 ] } }
]
}
